$GNRMC,123032.00,A,3953.73763,N,11630.29371,E,0.000,,261218,,,A,V*1A
$GNRMC,123033.00,A,3953.73765,N,11630.29371,E,0.000,,261218,,,A,V*1D
$GNRMC,123034.00,A,3953.73767,N,11630.29370,E,0.000,,261218,,,A,V*19
$GNRMC,123035.00,A,3953.73765,N,11630.29370,E,0.000,,261218,,,A,V*1A
$GNRMC,123036.00,A,3953.73762,N,11630.29372,E,0.000,,261218,,,A,V*1C
$GNRMC,123037.00,A,3953.73761,N,11630.29373,E,0.000,,261218,,,A,V*1F
$GNRMC,123038.00,A,3953.73763,N,11630.29371,E,0.000,,261218,,,A,V*10
$GNRMC,123039.00,A,3953.73765,N,11630.29369,E,0.000,,261218,,,A,V*1E
$GNRMC,123040.00,A,3953.73771,N,11630.29366,E,0.000,,261218,,,A,V*1A
$GNRMC,123041.00,A,3953.73778,N,11630.29365,E,0.000,,261218,,,A,V*11
$GNRMC,123042.00,A,3953.73782,N,11630.29365,E,0.000,,261218,,,A,V*17
$GNRMC,123043.00,A,3953.73786,N,11630.29366,E,0.000,,261218,,,A,V*11
$GNRMC,123044.00,A,3953.73786,N,11630.29369,E,0.000,,261218,,,A,V*19
$GNRMC,123045.00,A,3953.73788,N,11630.29371,E,0.000,,261218,,,A,V*1F
$GNRMC,123046.00,A,3953.73791,N,11630.29372,E,0.000,,261218,,,A,V*17
$GNRMC,123047.00,A,3953.73794,N,11630.29373,E,0.000,,261218,,,A,V*12
$GNRMC,123048.00,A,3953.73796,N,11630.29374,E,0.000,,261218,,,A,V*18
$GNRMC,123049.00,A,3953.73799,N,11630.29375,E,0.000,,261218,,,A,V*17
$GNRMC,123050.00,A,3953.73801,N,11630.29376,E,0.000,,261218,,,A,V*12
$GNRMC,123051.00,A,3953.73803,N,11630.29375,E,0.000,,261218,,,A,V*12
$GNRMC,123052.00,A,3953.73804,N,11630.29375,E,0.000,,261218,,,A,V*16
$GNRMC,123053.00,A,3953.73805,N,11630.29374,E,0.000,,261218,,,A,V*17
$GNRMC,123054.00,A,3953.73807,N,11630.29373,E,0.000,,261218,,,A,V*15
$GNRMC,123055.00,A,3953.73809,N,11630.29372,E,0.000,,261218,,,A,V*1B
$GNRMC,123056.00,A,3953.73810,N,11630.29372,E,0.000,,261218,,,A,V*10
$GNRMC,123057.00,A,3953.73812,N,11630.29371,E,0.000,,261218,,,A,V*10
$GNRMC,123058.00,A,3953.73814,N,11630.29370,E,0.000,,261218,,,A,V*18
$GNRMC,123059.00,A,3953.73816,N,11630.29369,E,0.000,,261218,,,A,V*13
$GNRMC,123100.00,A,3953.73816,N,11630.29369,E,0.000,,261218,,,A,V*1E
$GNRMC,123101.00,A,3953.73815,N,11630.29369,E,0.000,,261218,,,A,V*1C
$GNRMC,123102.00,A,3953.73815,N,11630.29370,E,0.000,,261218,,,A,V*17
$GNRMC,123103.00,A,3953.73816,N,11630.29370,E,0.000,,261218,,,A,V*15
$GNRMC,123104.00,A,3953.73816,N,11630.29371,E,0.000,,261218,,,A,V*13
$GNRMC,123105.00,A,3953.73816,N,11630.29372,E,0.000,,261218,,,A,V*11
$GNRMC,123106.00,A,3953.73818,N,11630.29371,E,0.000,,261218,,,A,V*1F
$GNRMC,123107.00,A,3953.73820,N,11630.29371,E,0.000,,261218,,,A,V*15
$GNRMC,123108.00,A,3953.73823,N,11630.29370,E,0.000,,261218,,,A,V*18
$GNRMC,123109.00,A,3953.73825,N,11630.29370,E,0.000,,261218,,,A,V*1F
$GNRMC,123110.00,A,3953.73827,N,11630.29369,E,0.000,,261218,,,A,V*1D
$GNRMC,123111.00,A,3953.73829,N,11630.29369,E,0.000,,261218,,,A,V*12
$GNRMC,123112.00,A,3953.73830,N,11630.29368,E,0.000,,261218,,,A,V*18
$GNRMC,123113.00,A,3953.73832,N,11630.29367,E,0.000,,261218,,,A,V*14
$GNRMC,123114.00,A,3953.73834,N,11630.29366,E,0.000,,261218,,,A,V*14
$GNRMC,123115.00,A,3953.73836,N,11630.29366,E,0.000,,261218,,,A,V*17
$GNRMC,123116.00,A,3953.73838,N,11630.29365,E,0.000,,261218,,,A,V*19
$GNRMC,123117.00,A,3953.73840,N,11630.29364,E,0.000,,261218,,,A,V*16
$GNRMC,123118.00,A,3953.73841,N,11630.29364,E,0.000,,261218,,,A,V*18
$GNRMC,123119.00,A,3953.73843,N,11630.29363,E,0.000,,261218,,,A,V*1C
$GNRMC,123120.00,A,3953.73844,N,11630.29363,E,0.000,,261218,,,A,V*11
$GNRMC,123121.00,A,3953.73844,N,11630.29363,E,0.000,,261218,,,A,V*10
$GNRMC,123122.00,A,3953.73845,N,11630.29363,E,0.000,,261218,,,A,V*12
$GNRMC,123123.00,A,3953.73847,N,11630.29363,E,0.000,,261218,,,A,V*11
$GNRMC,123124.00,A,3953.73849,N,11630.29363,E,0.000,,261218,,,A,V*18
$GNRMC,123125.00,A,3953.73851,N,11630.29362,E,0.000,,261218,,,A,V*11
$GNRMC,123126.00,A,3953.73853,N,11630.29362,E,0.000,,261218,,,A,V*10
$GNRMC,123127.00,A,3953.73854,N,11630.29362,E,0.000,,261218,,,A,V*16
$GNRMC,123128.00,A,3953.73855,N,11630.29361,E,0.000,,261218,,,A,V*1B
$GNRMC,123129.00,A,3953.73856,N,11630.29362,E,0.000,,261218,,,A,V*1A
$GNRMC,123130.00,A,3953.73857,N,11630.29362,E,0.000,,261218,,,A,V*13
$GNRMC,123131.00,A,3953.73858,N,11630.29362,E,0.000,,261218,,,A,V*1D
$GNRMC,123132.00,A,3953.73860,N,11630.29362,E,0.000,,261218,,,A,V*15
$GNRMC,123133.00,A,3953.73862,N,11630.29362,E,0.000,,261218,,,A,V*16
$GNRMC,123134.00,A,3953.73863,N,11630.29361,E,0.000,,261218,,,A,V*13
$GNRMC,123135.00,A,3953.73864,N,11630.29361,E,0.000,,261218,,,A,V*15
$GNRMC,123136.00,A,3953.73866,N,11630.29361,E,0.000,,261218,,,A,V*14
$GNRMC,123137.00,A,3953.73868,N,11630.29360,E,0.000,,261218,,,A,V*1A
$GNRMC,123138.00,A,3953.73870,N,11630.29360,E,0.000,,261218,,,A,V*1C
$GNRMC,123139.00,A,3953.73871,N,11630.29360,E,0.000,,261218,,,A,V*1C
$GNRMC,123140.00,A,3953.73873,N,11630.29361,E,0.000,,261218,,,A,V*11
$GNRMC,123141.00,A,3953.73874,N,11630.29361,E,0.000,,261218,,,A,V*17
$GNRMC,123142.00,A,3953.73876,N,11630.29362,E,0.000,,261218,,,A,V*15
$GNRMC,123143.00,A,3953.73878,N,11630.29362,E,0.000,,261218,,,A,V*1A
$GNRMC,123144.00,A,3953.73879,N,11630.29362,E,0.000,,261218,,,A,V*1C
$GNRMC,123145.00,A,3953.73880,N,11630.29363,E,0.000,,261218,,,A,V*1A
$GNRMC,123146.00,A,3953.73880,N,11630.29363,E,0.000,,261218,,,A,V*19
$GNRMC,123147.00,A,3953.73880,N,11630.29363,E,0.000,,261218,,,A,V*18
$GNRMC,123148.00,A,3953.73881,N,11630.29364,E,0.000,,261218,,,A,V*11
$GNRMC,123149.00,A,3953.73882,N,11630.29364,E,0.000,,261218,,,A,V*13
$GNRMC,123150.00,A,3953.73882,N,11630.29365,E,0.000,,261218,,,A,V*1A
$GNRMC,123151.00,A,3953.73884,N,11630.29365,E,0.000,,261218,,,A,V*1D
$GNRMC,123152.00,A,3953.73885,N,11630.29365,E,0.000,,261218,,,A,V*1F
$GNRMC,123153.00,A,3953.73887,N,11630.29365,E,0.000,,261218,,,A,V*1C
$GNRMC,123154.00,A,3953.73888,N,11630.29364,E,0.000,,261218,,,A,V*15
$GNRMC,123155.00,A,3953.73890,N,11630.29364,E,0.000,,261218,,,A,V*1D
$GNRMC,123156.00,A,3953.73891,N,11630.29364,E,0.000,,261218,,,A,V*1F
$GNRMC,123157.00,A,3953.73893,N,11630.29363,E,0.000,,261218,,,A,V*1B
$GNRMC,123158.00,A,3953.73894,N,11630.29363,E,0.000,,261218,,,A,V*13
$GNRMC,123159.00,A,3953.73895,N,11630.29363,E,0.000,,261218,,,A,V*13
$GNRMC,123200.00,A,3953.73896,N,11630.29362,E,0.000,,261218,,,A,V*1E
$GNRMC,123201.00,A,3953.73898,N,11630.29362,E,0.000,,261218,,,A,V*11
$GNRMC,123202.00,A,3953.73899,N,11630.29362,E,0.000,,261218,,,A,V*13
$GNRMC,123203.00,A,3953.73899,N,11630.29363,E,0.000,,261218,,,A,V*13
$GNRMC,123204.00,A,3953.73900,N,11630.29363,E,0.000,,261218,,,A,V*15
$GNRMC,123205.00,A,3953.73900,N,11630.29363,E,0.000,,261218,,,A,V*14
$GNRMC,123206.00,A,3953.73900,N,11630.29364,E,0.000,,261218,,,A,V*10
$GNRMC,123207.00,A,3953.73900,N,11630.29364,E,0.000,,261218,,,A,V*11
$GNRMC,123208.00,A,3953.73900,N,11630.29364,E,0.000,,261218,,,A,V*1E
$GNRMC,123209.00,A,3953.73901,N,11630.29364,E,0.000,,261218,,,A,V*1E
$GNRMC,123210.00,A,3953.73901,N,11630.29365,E,0.000,,261218,,,A,V*17
$GNRMC,123211.00,A,3953.73901,N,11630.29365,E,0.000,,261218,,,A,V*16
$GNRMC,123212.00,A,3953.73901,N,11630.29365,E,0.000,,261218,,,A,V*15
$GNRMC,123213.00,A,3953.73901,N,11630.29364,E,0.000,,261218,,,A,V*15
$GNRMC,123214.00,A,3953.73903,N,11630.29364,E,0.000,,261218,,,A,V*10
$GNRMC,123215.00,A,3953.73904,N,11630.29364,E,0.000,,261218,,,A,V*16
$GNRMC,123216.00,A,3953.73905,N,11630.29364,E,0.000,,261218,,,A,V*14
$GNRMC,123217.00,A,3953.73906,N,11630.29363,E,0.000,,261218,,,A,V*11
$GNRMC,123218.00,A,3953.73907,N,11630.29363,E,0.000,,261218,,,A,V*1F
$GNRMC,123219.00,A,3953.73909,N,11630.29362,E,0.000,,261218,,,A,V*11
$GNRMC,123220.00,A,3953.73909,N,11630.29362,E,0.000,,261218,,,A,V*1B
$GNRMC,123221.00,A,3953.73911,N,11630.29362,E,0.000,,261218,,,A,V*13
$GNRMC,123222.00,A,3953.73912,N,11630.29361,E,0.000,,261218,,,A,V*10
$GNRMC,123223.00,A,3953.73912,N,11630.29361,E,0.000,,261218,,,A,V*11
$GNRMC,123224.00,A,3953.73914,N,11630.29361,E,0.000,,261218,,,A,V*10
$GNRMC,123225.00,A,3953.73914,N,11630.29360,E,0.000,,261218,,,A,V*10
$GNRMC,123226.00,A,3953.73915,N,11630.29360,E,0.000,,261218,,,A,V*12
$GNRMC,123227.00,A,3953.73916,N,11630.29360,E,0.000,,261218,,,A,V*10
$GNRMC,123228.00,A,3953.73917,N,11630.29360,E,0.000,,261218,,,A,V*1E
$GNRMC,123229.00,A,3953.73918,N,11630.29360,E,0.000,,261218,,,A,V*10
$GNRMC,123230.00,A,3953.73918,N,11630.29360,E,0.000,,261218,,,A,V*18
$GNRMC,123231.00,A,3953.73918,N,11630.29360,E,0.000,,261218,,,A,V*19
$GNRMC,123232.00,A,3953.73918,N,11630.29360,E,0.000,,261218,,,A,V*1A
$GNRMC,123233.00,A,3953.73917,N,11630.29360,E,0.000,,261218,,,A,V*14
$GNRMC,123234.00,A,3953.73917,N,11630.29360,E,0.000,,261218,,,A,V*13
$GNRMC,123235.00,A,3953.73917,N,11630.29360,E,0.000,,261218,,,A,V*12
$GNRMC,123236.00,A,3953.73917,N,11630.29360,E,0.000,,261218,,,A,V*11
$GNRMC,123237.00,A,3953.73917,N,11630.29361,E,0.000,,261218,,,A,V*11
$GNRMC,123238.00,A,3953.73916,N,11630.29361,E,0.000,,261218,,,A,V*1F
$GNRMC,123239.00,A,3953.73916,N,11630.29360,E,0.000,,261218,,,A,V*1F
$GNRMC,123240.00,A,3953.73916,N,11630.29360,E,0.000,,261218,,,A,V*11
$GNRMC,123241.00,A,3953.73916,N,11630.29360,E,0.000,,261218,,,A,V*10
$GNRMC,123242.00,A,3953.73917,N,11630.29360,E,0.000,,261218,,,A,V*12
$GNRMC,123243.00,A,3953.73918,N,11630.29359,E,0.000,,261218,,,A,V*16
$GNRMC,123244.00,A,3953.73919,N,11630.29359,E,0.000,,261218,,,A,V*10
$GNRMC,123245.00,A,3953.73920,N,11630.29358,E,0.000,,261218,,,A,V*1A
$GNRMC,123246.00,A,3953.73921,N,11630.29358,E,0.000,,261218,,,A,V*18
$GNRMC,123247.00,A,3953.73922,N,11630.29357,E,0.000,,261218,,,A,V*15
$GNRMC,123248.00,A,3953.73923,N,11630.29357,E,0.000,,261218,,,A,V*1B
$GNRMC,123249.00,A,3953.73924,N,11630.29356,E,0.000,,261218,,,A,V*1C
$GNRMC,123250.00,A,3953.73924,N,11630.29356,E,0.000,,261218,,,A,V*14
$GNRMC,123251.00,A,3953.73925,N,11630.29355,E,0.000,,261218,,,A,V*17
$GNRMC,123252.00,A,3953.73926,N,11630.29355,E,0.000,,261218,,,A,V*17
$GNRMC,123253.00,A,3953.73926,N,11630.29355,E,0.000,,261218,,,A,V*16
$GNRMC,123254.00,A,3953.73926,N,11630.29355,E,0.000,,261218,,,A,V*11
$GNRMC,123255.00,A,3953.73926,N,11630.29355,E,0.000,,261218,,,A,V*10
$GNRMC,123256.00,A,3953.73926,N,11630.29354,E,0.000,,261218,,,A,V*12
$GNRMC,123257.00,A,3953.73926,N,11630.29354,E,0.000,,261218,,,A,V*13
$GNRMC,123258.00,A,3953.73926,N,11630.29355,E,0.000,,261218,,,A,V*1D
$GNRMC,123259.00,A,3953.73926,N,11630.29355,E,0.000,,261218,,,A,V*1C
UM220-IV NL G1B1 COM1
FWVer R3.1.10.18Build4802
$GNRMC,123306.00,V,,,,,,,261218,,,N,V*12
$GNRMC,123307.00,A,3953.73205,N,11630.28995,E,0.536,,261218,,,A,V*1B
$GNRMC,123308.00,A,3953.73481,N,11630.29244,E,0.320,,261218,,,A,V*19
$GNRMC,123309.00,A,3953.73574,N,11630.29023,E,0.880,,261218,,,A,V*11
$GNRMC,123310.00,A,3953.73571,N,11630.28981,E,0.105,,261218,,,A,V*18
$GNRMC,123311.00,A,3953.73588,N,11630.29038,E,0.000,,261218,,,A,V*11
$GNRMC,123312.00,A,3953.73591,N,11630.29038,E,0.000,,261218,,,A,V*1A
$GNRMC,123313.00,A,3953.73577,N,11630.29066,E,0.000,,261218,,,A,V*18
$GNRMC,123314.00,A,3953.73596,N,11630.29070,E,0.000,,261218,,,A,V*17
$GNRMC,123315.00,A,3953.73592,N,11630.29084,E,0.000,,261218,,,A,V*19
$GNRMC,123316.00,A,3953.73586,N,11630.29085,E,0.000,,261218,,,A,V*1E
$GNRMC,123317.00,A,3953.73589,N,11630.29089,E,0.000,,261218,,,A,V*1C
$GNRMC,123318.00,A,3953.73591,N,11630.29094,E,0.000,,261218,,,A,V*16
$GNRMC,123319.00,A,3953.73594,N,11630.29095,E,0.000,,261218,,,A,V*13
$GNRMC,123320.00,A,3953.73593,N,11630.29095,E,0.000,,261218,,,A,V*1E
$GNRMC,123321.00,A,3953.73586,N,11630.29088,E,0.000,,261218,,,A,V*17
$GNRMC,123322.00,A,3953.73582,N,11630.29085,E,0.000,,261218,,,A,V*1D
$GNRMC,123323.00,A,3953.73580,N,11630.29085,E,0.000,,261218,,,A,V*1E
$GNRMC,123324.00,A,3953.73583,N,11630.29084,E,0.000,,261218,,,A,V*1B
$GNRMC,123325.00,A,3953.73585,N,11630.29085,E,0.000,,261218,,,A,V*1D
$GNRMC,123326.00,A,3953.73582,N,11630.29087,E,0.000,,261218,,,A,V*1B
$GNRMC,123327.00,A,3953.73581,N,11630.29087,E,0.000,,261218,,,A,V*19
$GNRMC,123328.00,A,3953.73579,N,11630.29075,E,0.000,,261218,,,A,V*1C
$GNRMC,123329.00,A,3953.73578,N,11630.29066,E,0—˜ÿ$GNRMC,123341.00,A,3953.73551,N,11630.29044,E,0.000,,261218,,,A,V*1B
$GNRMC,123342.00,A,3953.73549,N,11630.29044,E,0.000,,261218,,,A,V*11
$GNRMC,123343.00,A,3953.73549,N,11630.29043,E,0.000,,261218,,,A,V*17
$GNRMC,123344.00,A,3953.73550,N,11630.29041,E,0.000,,261218,,,A,V*1A
$GNRMC,123345.00,A,3953.73551,N,11630.29040,E,0.000,,261218,,,A,V*1B
$GNRMC,123346.00,A,3953.73552,N,11630.29039,E,0.000,,261218,,,A,V*15
$GNRMC,123347.00,A,3953.73553,N,11630.29038,E,0.000,,261218,,,A,V*14
$GNRMC,123348.00,A,3953.73554,N,11630.29037,E,0.000,,261218,,,A,V*13
$GNRMC,123349.00,A,3953.73555,N,11630.29036,E,0.000,,261218,,,A,V*12
$GNRMC,123350.00,A,3953.73556,N,11630.29035,E,0.000,,261218,,,A,V*1A
$GNRMC,123351.00,A,3953.73557,N,11630.29035,E,0.000,,261218,,,A,V*1A
$GNRMC,123352.00,A,3953.73559,N,11630.29034,E,0.000,,261218,,,A,V*16
$GNRMC,123353.00,A,3953.73558,N,11630.29035,E,0.000,,261218,,,A,V*17
$GNRMC,123354.00,A,3953.73556,N,11630.29036,E,0.000,,261218,,,A,V*1D
$GNRMC,123355.00,A,3953.73555,N,11630.29038,E,0.000,,261218,,,A,V*11
$GNRMC,123356.00,A,3953.73554,N,11630.29039,E,0.000,,261218,,,A,V*12
$GNRMC,123357.00,A,3953.73553,N,11630.29040,E,0.000,,261218,,,A,V*1A
$GNRMC,123358.00,A,3953.73554,N,11630.29041,E,0.000,,261218,,,A,V*13
$GNRMC,123359.00,A,3953.73555,N,11630.29041,E,0.000,,261218,,,A,V*13
$GNRMC,123400.00,A,3953.73557,N,11630.29040,E,0.000,,261218,,,A,V*1B
$GNRMC,123401.00,A,3953.73557,N,11630.29041,E,0.000,,261218,,,A,V*1B
$GNRMC,123402.00,A,3953.73557,N,11630.29042,E,0.000,,261218,,,A,V*1B
$GNRMC,123403.00,A,3953.73558,N,11630.29042,E,0.000,,261218,,,A,V*15
$GNRMC,123404.00,A,3953.73558,N,11630.29042,E,0.000,,261218,,,A,V*12
$GNRMC,123405.00,A,3953.73559,N,11630.29041,E,0.000,,261218,,,A,V*11
$GNRMC,123406.00,A,3953.73560,N,11630.29041,E,0.000,,261218,,,A,V*18
$GNRMC,123407.00,A,3953.73560,N,11630.29041,E,0.000,,261218,,,A,V*19
$GNRMC,123408.00,A,3953.73561,N,11630.29040,E,0.000,,261218,,,A,V*16
$GNRMC,123409.00,A,3953.73561,N,11630.29040,E,0.000,,261218,,,A,V*17
$GNRMC,123410.00,A,3953.73562,N,11630.29040,E,0.000,,261218,,,A,V*1C
$GNRMC,123411.00,A,3953.73561,N,11630.29040,E,0.000,,261218,,,A,V*1E
$GNRMC,123412.00,A,3953.73559,N,11630.29040,E,0.000,,261218,,,A,V*16
$GNRMC,123413.00,A,3953.73558,N,11630.29041,E,0.000,,261218,,,A,V*17
$GNRMC,123414.00,A,3953.73557,N,11630.29041,E,0.000,,261218,,,A,V*1F
$GNRMC,123415.00,A,3953.73558,N,11630.29041,E,0.000,,261218,,,A,V*11
$GNRMC,123416.00,A,3953.73559,N,11630.29040,E,0.000,,261218,,,A,V*12
$GNRMC,123417.00,A,3953.73560,N,11630.29038,E,0.000,,261218,,,A,V*16
$GNRMC,123418.00,A,3953.73561,N,11630.29037,E,0.000,,261218,,,A,V*17
$GNRMC,123419.00,A,3953.73562,N,11630.29036,E,0.000,,261218,,,A,V*14
$GNRMC,123420.00,A,3953.73564,N,11630.29034,E,0.000,,261218,,,A,V*1A
$GNRMC,123421.00,A,3953.73565,N,11630.29033,E,0.000,,261218,,,A,V*1D
$GNRMC,123422.00,A,3953.73564,N,11630.29032,E,0.000,,261218,,,A,V*1E
$GNRMC,123423.00,A,3953.73562,N,11630.29032,E,0.000,,261218,,,A,V*19
$GNRMC,123424.00,A,3953.73562,N,11630.29031,E,0.000,,261218,,,A,V*1D
$GNRMC,123425.00,A,3953.73560,N,11630.29030,E,0.000,,261218,,,A,V*1F
$GNRMC,123426.00,A,3953.73559,N,11630.29029,E,0.000,,261218,,,A,V*1E
$GNRMC,123427.00,A,3953.73557,N,11630.29029,E,0.000,,261218,,,A,V*11
$GNRMC,123428.00,A,3953.73556,N,11630.29028,E,0.000,,261218,,,A,V*1E
$GNRMC,123429.00,A,3953.73554,N,11630.29028,E,0.000,,261218,,,A,V*1D
$GNRMC,123430.00,A,3953.73553,N,11630.29027,E,0.000,,261218,,,A,V*1D
$GNRMC,123431.00,A,3953.73551,N,11630.29027,E,0.000,,261218,,,A,V*1E
$GNRMC,123432.00,A,3953.73549,N,11630.29026,E,0.000,,261218,,,A,V*15
$GNRMC,123433.00,A,3953.73548,N,11630.29026,E,0.000,,261218,,,A,V*15
$GNRMC,123434.00,A,3953.73547,N,11630.29025,E,0.000,,261218,,,A,V*1E
$GNRMC,123435.00,A,3953.73545,N,11630.29025,E,0.000,,261218,,,A,V*1D
$GNRMC,123436.00,A,3953.73543,N,11630.29024,E,0.000,,261218,,,A,V*19
$GNRMC,123437.00,A,3953.73542,N,11630.29024,E,0.000,,261218,,,A,V*19
$GNRMC,123438.00,A,3953.73540,N,11630.29023,E,0.000,,261218,,,A,V*13
$GNRMC,123439.00,A,3953.73538,N,11630.29023,E,0.000,,261218,,,A,V*1D
$GNRMC,123440.00,A,3953.73537,N,11630.29023,E,0.000,,261218,,,A,V*1C
$GNRMC,123441.00,A,3953.73536,N,11630.29022,E,0.000,,261218,,,A,V*1D
$GNRMC,123442.00,A,3953.73535,N,11630.29022,E,0.000,,261218,,,A,V*1D
$GNRMC,123443.00,A,3953.73534,N,11630.29022,E,0.000,,261218,,,A,V*1D
$GNRMC,123444.00,A,3953.73534,N,11630.29022,E,0.000,,261218,,,A,V*1A
$GNRMC,123445.00,A,3953.73533,N,11630.29022,E,0.000,,261218,,,A,V*1C
$GNRMC,123446.00,A,3953.73532,N,11630.29022,E,0.000,,261218,,,A,V*1E
$GNRMC,123447.00,A,3953.73532,N,11630.29022,E,0.000,,261218,,,A,V*1F
$GNRMC,123448.00,A,3953.73531,N,11630.29023,E,0.000,,261218,,,A,V*12
$GNRMC,123449.00,A,3953.73530,N,11630.29023,E,0.000,,261218,,,A,V*12
$GNRMC,123450.00,A,3953.73530,N,11630.29023,E,0.000,,261218,,,A,V*1A
$GNRMC,123451.00,A,3953.73529,N,11630.29023,E,0.000,,261218,,,A,V*13
$GNRMC,123452.00,A,3953.73528,N,11630.29023,E,0.000,,261218,,,A,V*11
$GNRMC,123453.00,A,3953.73528,N,11630.29023,E,0.000,,261218,,,A,V*10
$GNRMC,123454.00,A,3953.73528,N,11630.29022,E,0.000,,261218,,,A,V*16
$GNRMC,123455.00,A,3953.73528,N,11630.29022,E,0.000,,261218,,,A,V*17
$GNRMC,123456.00,A,3953.73527,N,11630.29022,E,0.000,,261218,,,A,V*1B
$GNRMC,123457.00,A,3953.73527,N,11630.29022,E,0.000,,261218,,,A,V*1A
$GNRMC,123458.00,A,3953.73527,N,11630.29022,E,0.000,,261218,,,A,V*15
$GNRMC,123459.00,A,3953.73527,N,11630.29021,E,0.000,,261218,,,A,V*17
$GNRMC,123500.00,A,3953.73527,N,11630.29021,E,0.000,,261218,,,A,V*1A
$GNRMC,123501.00,A,3953.73526,N,11630.29021,E,0.000,,261218,,,A,V*1A
$GNRMC,123502.00,A,3953.73526,N,11630.29021,E,0.000,,261218,,,A,V*19
$GNRMC,123503.00,A,3953.73526,N,11630.29021,E,0.000,,261218,,,A,V*18
$GNRMC,123504.00,A,3953.73526,N,11630.29021,E,0.000,,261218,,,A,V*1F
$GNRMC,123505.00,A,3953.73526,N,11630.29020,E,0.000,,261218,,,A,V*1F
$GNRMC,123506.00,A,3953.73525,N,11630.29020,E,0.000,,261218,,,A,V*1F
$GNRMC,123507.00,A,3953.73525,N,11630.29020,E,0.000,,261218,,,A,V*1E
$GNRMC,123508.00,A,3953.73525,N,11630.29020,E,0.000,,261218,,,A,V*11
$GNRMC,123509.00,A,3953.73525,N,11630.29020,E,0.000,,261218,,,A,V*10
$GNRMC,123510.00,A,3953.73525,N,11630.29020,E,0.000,,261218,,,A,V*18
$GNRMC,123511.00,A,3953.73525,N,11630.29020,E,0.000,,261218,,,A,V*19
$GNRMC,123512.00,A,3953.73524,N,11630.29019,E,0.000,,261218,,,A,V*11
$GNRMC,123513.00,A,3953.73524,N,11630.29019,E,0.000,,261218,,,A,V*10
$GNRMC,123514.00,A,3953.73524,N,11630.29019,E,0.000,,261218,,,A,V*17
$GNRMC,123515.00,A,3953.73524,N,11630.29019,E,0.000,,261218,,,A,V*16
$GNRMC,123516.00,A,3953.73523,N,11630.29020,E,0.000,,261218,,,A,V*18
$GNRMC,123517.00,A,3953.73523,N,11630.29020,E,0.000,,261218,,,A,V*19
$GNRMC,123518.00,A,3953.73522,N,11630.29020,E,0.000,,261218,,,A,V*17
$GNRMC,123519.00,A,3953.73522,N,11630.29020,E,0.000,,261218,,,A,V*16
$GNRMC,123520.00,A,3953.73522,N,11630.29020,E,0.000,,261218,,,A,V*1C
$GNRMC,123521.00,A,3953.73521,N,11630.29020,E,0.000,,261218,,,A,V*1E
$GNRMC,123522.00,A,3953.73521,N,11630.29020,E,0.000,,261218,,,A,V*1D
$GNRMC,123523.00,A,3953.73520,N,11630.29020,E,0.000,,261218,,,A,V*1D
$GNRMC,123524.00,A,3953.73520,N,11630.29021,E,0.000,,261218,,,A,V*1B
$GNRMC,123525.00,A,3953.73519,N,11630.29021,E,0.000,,261218,,,A,V*10
$GNRMC,123526.00,A,3953.73519,N,11630.29021,E,0.000,,261218,,,A,V*13
$GNRMC,123527.00,A,3953.73519,N,11630.29021,E,0.000,,261218,,,A,V*12
$GNRMC,123528.00,A,3953.73519,N,11630.29021,E,0.000,,261218,,,A,V*1D
$GNRMC,123529.00,A,3953.73519,N,11630.29021,E,0.000,,261218,,,A,V*1C
$GNRMC,123530.00,A,3953.73519,N,11630.29021,E,0.000,,261218,,,A,V*14
$GNRMC,123531.00,A,3953.73518,N,11630.29021,E,0.000,,261218,,,A,V*14
$GNRMC,123532.00,A,3953.73518,N,11630.29021,E,0.000,,261218,,,A,V*17
$GNRMC,123533.00,A,3953.73518,N,11630.29021,E,0.000,,261218,,,A,V*16
$GNRMC,123534.00,A,3953.73518,N,11630.29021,E,0.000,,261218,,,A,V*11
$GNRMC,123535.00,A,3953.73518,N,11630.29021,E,0.000,,261218,,,A,V*10
$GNRMC,123536.00,A,3953.73518,N,11630.29021,E,0.000,,261218,,,A,V*13
$GNRMC,123537.00,A,3953.73518,N,11630.29021,E,0.000,,261218,,,A,V*12
$GNRMC,123538.00,A,3953.73517,N,11630.29021,E,0.000,,261218,,,A,V*12
$GNRMC,123539.00,A,3953.73517,N,11630.29021,E,0.000,,261218,,,A,V*13
$GNRMC,123540.00,A,3953.73516,N,11630.29021,E,0.000,,261218,,,A,V*1C
$GNRMC,123541.00,A,3953.73516,N,11630.29021,E,0.000,,261218,,,A,V*1D
$GNRMC,123542.00,A,3953.73515,N,11630.29021,E,0.000,,261218,,,A,V*1D
$GNRMC,123543.00,A,3953.73515,N,11630.29022,E,0.000,,261218,,,A,V*1F
$GNRMC,123544.00,A,3953.73515,N,11630.29022,E,0.000,,261218,,,A,V*18
$GNRMC,123545.00,A,3953.73516,N,11630.29022,E,0.000,,261218,,,A,V*1A
$GNRMC,123546.00,A,3953.73516,N,11630.29022,E,0.000,,261218,,,A,V*19
$GNRMC,123547.00,A,3953.73517,N,11630.29023,E,0.000,,261218,,,A,V*18
$GNRMC,123548.00,A,3953.73517,N,11630.29023,E,0.000,,261218,,,A,V*17
$GNRMC,123549.00,A,3953.73517,N,11630.29023,E,0.000,,261218,,,A,V*16
$GNRMC,123550.00,A,3953.73517,N,11630.29024,E,0.000,,261218,,,A,V*19
$GNRMC,123551.00,A,3953.73517,N,11630.29024,E,0.000,,261218,,,A,V*18
$GNRMC,123552.00,A,3953.73516,N,11630.29024,E,0.000,,261218,,,A,V*1A
$GNRMC,123553.00,A,3953.73516,N,11630.29024,E,0.000,,261218,,,A,V*1B
$GNRMC,123554.00,A,3953.73516,N,11630.29024,E,0.000,,261218,,,A,V*1C
$GNRMC,123555.00,A,3953.73515,N,11630.29025,E,0.000,,261218,,,A,V*1F
$GNRMC,123556.00,A,3953.73515,N,11630.29025,E,0.000,,261218,,,A,V*1C
$GNRMC,123557.00,A,3953.73516,N,11630.29025,E,0.000,,261218,,,A,V*1E
$GNRMC,123558.00,A,3953.73516,N,11630.29025,E,0.000,,261218,,,A,V*11
$GNRMC,123559.00,A,3953.73516,N,11630.29026,E,0.000,,261218,,,A,V*13
$GNRMC,123600.00,A,3953.73515,N,11630.29026,E,0.000,,261218,,,A,V*1F
$GNRMC,123601.00,A,3953.73514,N,11630.29026,E,0.000,,261218,,,A,V*1F
$GNRMC,123602.00,A,3953.73514,N,11630.29026,E,0.000,,261218,,,A,V*1C
$GNRMC,123603.00,A,3953.73513,N,11630.29026,E,0.000,,261218,,,A,V*1A
$GNRMC,123604.00,A,3953.73513,N,11630.29027,E,0.000,,261218,,,A,V*1C
$GNRMC,123605.00,A,3953.73513,N,11630.29027,E,0.000,,261218,,,A,V*1D
$GNRMC,123606.00,A,3953.73513,N,11630.29027,E,0.000,,261218,,,A,V*1E
$GNRMC,123607.00,A,3953.73513,N,11630.29027,E,0.000,,261218,,,A,V*1F
$GNRMC,123608.00,A,3953.73513,N,11630.29027,E,0.000,,261218,,,A,V*10
$GNRMC,123609.00,A,3953.73513,N,11630.29027,E,0.000,,261218,,,A,V*11
$GNRMC,123610.00,A,3953.73513,N,11630.29027,E,0.000,,261218,,,A,V*19
$GNRMC,123611.00,A,3953.73513,N,11630.29028,E,0.000,,261218,,,A,V*17
$GNRMC,123612.00,A,3953.73513,N,11630.29028,E,0.000,,261218,,,A,V*14
$GNRMC,123613.00,A,3953.73513,N,11630.29028,E,0.000,,261218,,,A,V*15
$GNRMC,123614.00,A,3953.73513,N,11630.29028,E,0.000,,261218,,,A,V*12
$GNRMC,123615.00,A,3953.73512,N,11630.29028,E,0.000,,261218,,,A,V*12
$GNRMC,123616.00,A,3953.73512,N,11630.29028,E,0.000,,261218,,,A,V*11
$GNRMC,123617.00,A,3953.73512,N,11630.29029,E,0.000,,261218,,,A,V*11
UM220-IV NL G1B1 COM1
FWVer R3.1.10.18Build4802
$GNRMC,123623.99,V,,,,,,,261218,,,N,V*10
$GNRMC,123624.99,A,3953.73538,N,11630.29991,E,0.882,,261218,,,A,V*11
$GNRMC,123625.99,A,3953.73970,N,11630.29014,E,0.100,,261218,,,A,V*17
$GNRMC,123626.74,A,3953.73755,N,11630.29012,E,0.000,,261218,,,A,V*19
$GNRMC,123627.49,A,3953.73933,N,11630.28993,E,0.000,,261218,,,A,V*19
$GNRMC,123628.24,A,3953.73860,N,11630.29001,E,0.000,,261218,,,A,V*19
$GNRMC,123629.00,A,3953.73875,N,11630.28998,E,0.000,,261218,,,A,V*12
$GNRMC,123630.00,A,3953.73886,N,11630.28988,E,0.000,,261218,,,A,V*17
$GNRMC,123631.00,A,3953.73895,N,11630.28988,E,0.000,,261218,,,A,V*14
$GNRMC,123632.00,A,3953.73903,N,11630.28991,E,0.000,,261218,,,A,V*11
$GNRMC,123633.00,A,3953.73879,N,11630.29005,E,0.000,,261218,,,A,V*19
$GNRMC,123634.00,A,3953.73855,N,11630.29013,E,0.000,,261218,,,A,V*17
$GNRMC,123635.00,A,3953.73861,N,11630.29024,E,0.000,,261218,,,A,V*15
$GNRMC,123636.00,A,3953.73857,N,11630.29034,E,0.000,,261218,,,A,V*12
$GNRMC,123637.00,A,3953.73844,N,11630.29045,E,0.000,,261218,,,A,V*17
$GNRMC,123638.00,A,3953.73839,N,11630.29048,E,0.000,,261218,,,A,V*1F
$GNRMC,123639.00,A,3953.73836,N,11630.29053,E,0.000,,261218,,,A,V*1B
$GNRMC,123640.00,A,3953.73819,N,11630.29059,E,0.000,,261218,,,A,V*12
$GNRMC,123641.00,A,3953.73816,N,11630.29063,E,0.000,,261218,,,A,V*15
$GNRMC,123642.00,A,3953.73803,N,11630.29066,E,0.000,,261218,,,A,V*17
$GNRMC,123643.00,A,3953.73789,N,11630.29072,E,0.000,,261218,,,A,V*1E
$GNRMC,123644.00,A,3953.73790,N,11630.29074,E,0.000,,261218,,,A,V*17
$GNRMC,123645.00,A,3953.73785,N,11630.29076,E,0.000,,261218,,,A,V*10
$GNRMC,123646.00,A,3953.73783,N,11630.29078,E,0.000,,261218,,,A,V*1B
$GNRMC,123647.00,A,3953.73780,N,11630.29079,E,0.000,,261218,,,A,V*18
$GNRMC,123648.00,A,3953.73776,N,11630.29080,E,0.000,,261218,,,A,V*18
$GNRMC,123649.00,A,3953.73774,N,11630.29080,E,0.000,,261218,,,A,V*1B
$GNRMC,123650.00,A,3953.73773,N,11630.29080,E,0.000,,261218,,,A,V*14
$GNRMC,123651.00,A,3953.73766,N,11630.29079,E,0.000,,261218,,,A,V*17
$GNRMC,123652.00,A,3953.73760,N,11630.29077,E,0.000,,261218,,,A,V*1C
$GNRMC,123653.00,A,3953.73761,N,11630.29077,E,0.000,,261218,,,A,V*1C
$GNRMC,123654.00,A,3953.73770,N,11630.29075,E,0.000,,261218,,,A,V*19
$GNRMC,123655.00,A,3953.73779,N,11630.29074,E,0.000,,261218,,,A,V*10
$GNRMC,123656.00,A,3953.73784,N,11630.29073,E,0.000,,261218,,,A,V*16
$GNRMC,123657.00,A,3953.73789,N,11630.29072,E,0.000,,261218,,,A,V*1B
$GNRMC,123658.00,A,3953.73794,N,11630.29072,E,0.000,,261218,,,A,V*18
$GNRMC,123659.00,A,3953.73799,N,11630.29072,E,0.000,,261218,,,A,V*14
$GNRMC,123700.00,A,3953.73800,N,11630.29072,E,0.000,,261218,,,A,V*16
$GNRMC,123701.00,A,3953.73800,N,11630.29072,E,0.000,,261218,,,A,V*17
$GNRMC,123702.00,A,3953.73804,N,11630.29072,E,0.000,,261218,,,A,V*10
$GNRMC,123703.00,A,3953.73807,N,11630.29072,E,0.000,,261218,,,A,V*12
$GNRMC,123704.00,A,3953.73812,N,11630.29072,E,0.000,,261218,,,A,V*11
$GNRMC,123705.00,A,3953.73810,N,11630.29072,E,0.000,,261218,,,A,V*12
$GNRMC,123706.00,A,3953.73807,N,11630.29072,E,0.000,,261218,,,A,V*17
$GNRMC,123707.00,A,3953.73808,N,11630.29072,E,0.000,,261218,,,A,V*19
$GNRMC,123708.00,A,3953.73808,N,11630.29072,E,0.000,,261218,,,A,V*16
$GNRMC,123709.00,A,3953.73808,N,11630.29072,E,0.000,,261218,,,A,V*17
$GNRMC,123710.00,A,3953.73808,N,11630.29072,E,0.000,,261218,,,A,V*1F
$GNRMC,123711.00,A,3953.73809,N,11630.29073,E,0.000,,261218,,,A,V*1E
$GNRMC,123712.00,A,3953.73809,N,11630.29073,E,0.000,,261218,,,A,V*1D
$GNRMC,123713.00,A,3953.73809,N,11630.29073,E,0.000,,261218,,,A,V*1C
$GNRMC,123714.00,A,3953.73809,N,11630.29073,E,0.000,,261218,,,A,V*1B
$GNRMC,123715.00,A,3953.73809,N,11630.29074,E,0.000,,261218,,,A,V*1D
$GNRMC,123716.00,A,3953.73810,N,11630.29074,E,0.000,,261218,,,A,V*16
$GNRMC,123717.00,A,3953.73810,N,11630.29074,E,0.000,,261218,,,A,V*17
$GNRMC,123718.00,A,3953.73810,N,11630.29074,E,0.000,,261218,,,A,V*18
$GNRMC,123719.00,A,3953.73810,N,11630.29075,E,0.000,,261218,,,A,V*18
$GNRMC,123720.00,A,3953.73810,N,11630.29075,E,0.000,,261218,,,A,V*12
$GNRMC,123721.00,A,3953.73810,N,11630.29075,E,0.000,,261218,,,A,V*13
$GNRMC,123722.00,A,3953.73810,N,11630.29075,E,0.000,,261218,,,A,V*10
$GNRMC,123723.00,A,3953.73810,N,11630.29075,E,0.000,,261218,,,A,V*11
$GNRMC,123724.00,A,3953.73810,N,11630.29075,E,0.000,,261218,,,A,V*16
$GNRMC,123725.00,A,3953.73810,N,11630.29076,E,0.000,,261218,,,A,V*14
$GNRMC,123726.00,A,3953.73810,N,11630.29076,E,0.000,,261218,,,A,V*17
$GNRMC,123727.00,A,3953.73810,N,11630.29076,E,0.000,,261218,,,A,V*16
$GNRMC,123728.00,A,3953.73810,N,11630.29076,E,0.000,,261218,,,A,V*19
$GNRMC,123729.00,A,3953.73810,N,11630.29077,E,0.000,,261218,,,A,V*19
$GNRMC,123730.00,A,3953.73810,N,11630.29077,E,0.000,,261218,,,A,V*11
$GNRMC,123731.00,A,3953.73810,N,11630.29077,E,0.000,,261218,,,A,V*10
$GNRMC,123732.00,A,3953.73810,N,11630.29078,E,0.000,,261218,,,A,V*1C
$GNRMC,123733.00,A,3953.73809,N,11630.29078,E,0.000,,261218,,,A,V*15
$GNRMC,123734.00,A,3953.73809,N,11630.29078,E,0.000,,261218,,,A,V*12
$GNRMC,123735.00,A,3953.73808,N,11630.29078,E,0.000,,261218,,,A,V*12
$GNRMC,123736.00,A,3953.73806,N,11630.29079,E,0.000,,261218,,,A,V*1E
$GNRMC,123737.00,A,3953.73805,N,11630.29079,E,0.000,,261218,,,A,V*1C
$GNRMC,123738.00,A,3953.73803,N,11630.29079,E,0.000,,261218,,,A,V*15
$GNRMC,123739.00,A,3953.73803,N,11630.29080,E,0.000,,261218,,,A,V*12
$GNRMC,123740.00,A,3953.73802,N,11630.29080,E,0.000,,261218,,,A,V*1D
$GNRMC,123741.00,A,3953.73802,N,11630.29080,E,0.000,,261218,,,A,V*1C
$GNRMC,123742.00,A,3953.73800,N,11630.29080,E,0.000,,261218,,,A,V*1D
$GNRMC,123743.00,A,3953.73797,N,11630.29080,E,0.000,,261218,,,A,V*1D
$GNRMC,123744.00,A,3953.73794,N,11630.29080,E,0.000,,261218,,,A,V*19
$GNRMC,123745.00,A,3953.73792,N,11630.29080,E,0.000,,261218,,,A,V*1E
$GNRMC,123746.00,A,3953.73790,N,11630.29080,E,0.000,,261218,,,A,V*1F
$GNRMC,123747.00,A,3953.73789,N,11630.29080,E,0.000,,261218,,,A,V*16
$GNRMC,123748.00,A,3953.73786,N,11630.29081,E,0.000,,261218,,,A,V*17
$GNRMC,123749.00,A,3953.73784,N,11630.29081,E,0.000,,261218,,,A,V*14
$GNRMC,123750.00,A,3953.73784,N,11630.29081,E,0.000,,261218,,,A,V*1C
$GNRMC,123751.00,A,3953.73783,N,11630.29081,E,0.000,,261218,,,A,V*1A
$GNRMC,123752.00,A,3953.73783,N,11630.29082,E,0.000,,261218,,,A,V*1A
$GNRMC,123753.00,A,3953.73783,N,11630.29082,E,0.000,,261218,,,A,V*1B
$GNRMC,123754.00,A,3953.73782,N,11630.29082,E,0.000,,261218,,,A,V*1D
$GNRMC,123755.00,A,3953.73782,N,11630.29082,E,0.000,,261218,,,A,V*1C
$GNRMC,123756.00,A,3953.73781,N,11630.29082,E,0.000,,261218,,,A,V*1C
$GNRMC,123757.00,A,3953.73781,N,11630.29083,E,0.000,,261218,,,A,V*1C
$GNRMC,123758.00,A,3953.73781,N,11630.29083,E,0.000,,261218,,,A,V*13
$GNRMC,123759.00,A,3953.73780,N,11630.29083,E,0.000,,261218,,,A,V*13
$GNRMC,123800.00,A,3953.73779,N,11630.29083,E,0.000,,261218,,,A,V*16
$GNRMC,123801.00,A,3953.73779,N,11630.29083,E,0.000,,261218,,,A,V*17
$GNRMC,123802.00,A,3953.73777,N,11630.29083,E,0.000,,261218,,,A,V*1A
$GNRMC,123803.00,A,3953.73775,N,11630.29083,E,0.000,,261218,,,A,V*19
$GNRMC,123804.00,A,3953.73773,N,11630.29084,E,0.000,,261218,,,A,V*1F
$GNRMC,123805.00,A,3953.73772,N,11630.29084,E,0.000,,261218,,,A,V*1F
$GNRMC,123806.00,A,3953.73771,N,11630.29085,E,0.000,,261218,,,A,V*1E
$GNRMC,123807.00,A,3953.73771,N,11630.29085,E,0.000,,261218,,,A,V*1F
$GNRMC,123808.00,A,3953.73770,N,11630.29085,E,0.000,,261218,,,A,V*11
$GNRMC,123809.00,A,3953.73770,N,11630.29085,E,0.000,,261218,,,A,V*10
$GNRMC,123810.00,A,3953.73769,N,11630.29085,E,0.000,,261218,,,A,V*10
$GNRMC,123811.00,A,3953.73769,N,11630.29085,E,0.000,,261218,,,A,V*11
$GNRMC,123812.00,A,3953.73766,N,11630.29085,E,0.000,,261218,,,A,V*1D
$GNRMC,123813.00,A,3953.73764,N,11630.29085,E,0.000,,261218,,,A,V*1E
$GNRMC,123814.00,A,3953.73763,N,11630.29085,E,0.000,,261218,,,A,V*1E
$GNRMC,123815.00,A,3953.73761,N,11630.29085,E,0.000,,261218,,,A,V*1D
$GNRMC,123816.00,A,3953.73759,N,11630.29085,E,0.000,,261218,,,A,V*15
$GNRMC,123817.00,A,3953.73759,N,11630.29085,E,0.000,,261218,,,A,V*14
$GNRMC,123818.00,A,3953.73760,N,11630.29085,E,0.000,,261218,,,A,V*11
$GNRMC,123819.00,A,3953.73761,N,11630.29084,E,0.000,,261218,,,A,V*10
$GNRMC,123820.00,A,3953.73762,N,11630.29084,E,0.000,,261218,,,A,V*19
$GNRMC,123821.00,A,3953.73762,N,11630.29084,E,0.000,,261218,,,A,V*18
$GNRMC,123822.00,A,3953.73763,N,11630.29084,E,0.000,,261218,,,A,V*1A
$GNRMC,123823.00,A,3953.73764,N,11630.29084,E,0.000,,261218,,,A,V*1C
$GNRMC,123824.00,A,3953.73765,N,11630.29084,E,0.000,,261218,,,A,V*1A
$GNRMC,123825.00,A,3953.73763,N,11630.29084,E,0.000,,261218,,,A,V*1D
$GNRMC,123826.00,A,3953.73763,N,11630.29084,E,0.000,,261218,,,A,V*1E
$GNRMC,123827.00,A,3953.73761,N,11630.29084,E,0.000,,261218,,,A,V*1D
$GNRMC,123828.00,A,3953.73760,N,11630.29084,E,0.000,,261218,,,A,V*13
$GNRMC,123829.00,A,3953.73759,N,11630.29084,E,0.000,,261218,,,A,V*18
$GNRMC,123830.00,A,3953.73758,N,11630.29084,E,0.000,,261218,,,A,V*11
$GNRMC,123831.00,A,3953.73757,N,11630.29085,E,0.000,,261218,,,A,V*1E
$GNRMC,123832.00,A,3953.73756,N,11630.29085,E,0.000,,261218,,,A,V*1C
$GNRMC,123833.00,A,3953.73755,N,11630.29085,E,0.000,,261218,,,A,V*1E
$GNRMC,123834.00,A,3953.73754,N,11630.29085,E,0.000,,261218,,,A,V*18
$GNRMC,123835.00,A,3953.73753,N,11630.29086,E,0.000,,261218,,,A,V*1D
$GNRMC,123836.00,A,3953.73752,N,11630.29086,E,0.000,,261218,,,A,V*1F
$GNRMC,123837.00,A,3953.73751,N,11630.29086,E,0.000,,261218,,,A,V*1D
$GNRMC,123838.00,A,3953.73749,N,11630.29086,E,0.000,,261218,,,A,V*1B
$GNRMC,123839.00,A,3953.73747,N,11630.29086,E,0.000,,261218,,,A,V*14
$GNRMC,123840.00,A,3953.73747,N,11630.29086,E,0.000,,261218,,,A,V*1A
$GNRMC,123841.00,A,3953.73746,N,11630.29086,E,0.000,,261218,,,A,V*1A
$GNRMC,123842.00,A,3953.73746,N,11630.29086,E,0.000,,261218,,,A,V*19
$GNRMC,123843.00,A,3953.73744,N,11630.29086,E,0.000,,261218,,,A,V*1A
$GNRMC,123844.00,A,3953.73742,N,11630.29086,E,0.000,,261218,,,A,V*1B
$GNRMC,123845.00,A,3953.73742,N,11630.29086,E,0.000,,261218,,,A,V*1A
$GNRMC,123846.00,A,3953.73741,N,11630.29087,E,0.000,,261218,,,A,V*1B
$GNRMC,123847.00,A,3953.73740,N,11630.29087,E,0.000,,261218,,,A,V*1B
$GNRMC,123848.00,A,3953.73740,N,11630.29087,E,0.000,,261218,,,A,V*14
$GNRMC,123849.00,A,3953.73740,N,11630.29087,E,0.000,,261218,,,A,V*15
$GNRMC,123850.00,A,3953.73740,N,11630.29087,E,0.000,,261218,,,A,V*1D
$GNRMC,123851.00,A,3953.73739,N,11630.29087,E,0.000,,261218,,,A,V*12
$GNRMC,123852.00,A,3953.73739,N,11630.29087,E,0.000,,261218,,,A,V*11
$GNRMC,123853.00,A,3953.73739,N,11630.29087,E,0.000,,261218,,,A,V*10
$GNRMC,123854.00,A,3953.73738,N,11630.29087,E,0.000,,261218,,,A,V*16
$GNRMC,123855.00,A,3953.73738,N,11630.29087,E,0.000,,261218,,,A,V*17
$GNRMC,123856.00,A,3953.73738,N,11630.29088,E,0.000,,261218,,,A,V*1B
$GNRMC,123857.00,A,3953.73738,N,11630.29088,E,0.000,,261218,,,A,V*1A
$GNRMC,123858.00,A,3953.73738,N,11630.29088,E,0.000,,261218,,,A,V*15
$GNRMC,123859.00,A,3953.73737,N,11630.29088,E,0.000,,261218,,,A,V*1B
$GNRMC,123900.00,A,3953.73737,N,11630.29088,E,0.000,,261218,,,A,V*16
$GNRMC,123901.00,A,3953.73737,N,11630.29088,E,0.000,,261218,,,A,V*17
$GNRMC,123902.00,A,3953.73736,N,11630.29088,E,0.000,,261218,,,A,V*15
$GNRMC,123903.00,A,3953.73736,N,11630.29088,E,0.000,,261218,,,A,V*14
$GNRMC,123904.00,A,3953.73736,N,11630.29088,E,0.000,,261218,,,A,V*13
$GNRMC,123905.00,A,3953.73736,N,11630.29088,E,0.000,,261218,,,A,V*12
$GNRMC,123906.00,A,3953.73736,N,11630.29088,E,0.000,,261218,,,A,V*11
$GNRMC,123907.00,A,3953.73735,N,11630.29089,E,0.000,,261218,,,A,V*12
$GNRMC,123908.00,A,3953.73734,N,11630.29089,E,0.000,,261218,,,A,V*1C
$GNRMC,123909.00,A,3953.73734,N,11630.29089,E,0.000,,261218,,,A,V*1D
$GNRMC,123910.00,A,3953.73734,N,11630.29089,E,0.000,,261218,,,A,V*15
$GNRMC,123911.00,A,3953.73734,N,11630.29089,E,0.000,,261218,,,A,V*14
$GNRMC,123912.00,A,3953.73735,N,11630.29088,E,0.000,,261218,,,A,V*17
$GNRMC,123913.00,A,3953.73736,N,11630.29088,E,0.000,,261218,,,A,V*15
$GNRMC,123914.00,A,3953.73737,N,11630.29088,E,0.000,,261218,,,A,V*13
$GNRMC,123915.00,A,3953.73738,N,11630.29087,E,0.000,,261218,,,A,V*12
$GNRMC,123916.00,A,3953.73737,N,11630.29088,E,0.000,,261218,,,A,V*11
$GNRMC,123917.00,A,3953.73737,N,11630.29088,E,0.000,,261218,,,A,V*10
$GNRMC,123918.00,A,3953.73736,N,11630.29088,E,0.000,,261218,,,A,V*1E
$GNRMC,123919.00,A,3953.73736,N,11630.29088,E,0.000,,261218,,,A,V*1F
$GNRMC,123920.00,A,3953.73736,N,11630.29088,E,0.000,,261218,,,A,V*15
$GNRMC,123921.00,A,3953.73735,N,11630.29088,E,0.000,,261218,,,A,V*17
$GNRMC,123922.00,A,3953.73735,N,11630.29088,E,0.000,,261218,,,A,V*14
$GNRMC,123923.00,A,3953.73735,N,11630.29088,E,0.000,,261218,,,A,V*15
$GNRMC,123924.00,A,3953.73735,N,11630.29088,E,0.000,,261218,,,A,V*12
$GNRMC,123925.00,A,3953.73735,N,11630.29088,E,0.000,,261218,,,A,V*13
$GNRMC,123926.00,A,3953.73735,N,11630.29088,E,0.000,,261218,,,A,V*10
$GNRMC,123927.00,A,3953.73734,N,11630.29088,E,0.000,,261218,,,A,V*10
$GNRMC,123928.00,A,3953.73734,N,11630.29087,E,0.000,,261218,,,A,V*10
$GNRMC,123929.00,A,3953.73735,N,11630.29087,E,0.000,,261218,,,A,V*10
$GNRMC,123930.00,A,3953.73735,N,11630.29087,E,0.000,,261218,,,A,V*18
$GNRMC,123931.00,A,3953.73735,N,11630.29087,E,0.000,,261218,,,A,V*19
$GNRMC,123932.00,A,3953.73735,N,11630.29087,E,0.000,,261218,,,A,V*1A
$GNRMC,123933.00,A,3953.73734,N,11630.29087,E,0.000,,261218,,,A,V*1A
$GNRMC,123934.00,A,3953.73734,N,11630.29087,E,0.000,,261218,,,A,V*1D
$GNRMC,123935.00,A,3953.73733,N,11630.29087,E,0.000,,261218,,,A,V*1B
$GNRMC,123936.00,A,3953.73733,N,11630.29086,E,0.000,,261218,,,A,V*19
$GNRMC,123937.00,A,3953.73733,N,11630.29086,E,0.000,,261218,,,A,V*18
$GNRMC,123938.00,A,3953.73733,N,11630.29086,E,0.000,,261218,,,A,V*17
$GNRMC,123939.00,A,3953.73733,N,11630.29085,E,0.000,,261218,,,A,V*15
$GNRMC,123940.00,A,3953.73732,N,11630.29085,E,0.000,,261218,,,A,V*1A
UM220-IV NL G1B1 COM1
FWVer R3.1.10.18Build4802
$GNRMC,123946.98,V,,,,,,,261218,,,N,V*1D
$GNRMC,123947.98,A,3953.73786,N,11630.28428,E,0.620,,261218,,,A,V*15
$GNRMC,123948.98,A,3953.73306,N,11630.28508,E,0.188,,261218,,,A,V*10
$GNRMC,123949.98,A,3953.73537,N,11630.28461,E,0.494,,261218,,,A,V*13
$GNRMC,123950.73,A,3953.73468,N,11630.28536,E,0.000,,261218,,,A,V*1F
$GNRMC,123951.48,A,3953.73484,N,11630.28574,E,0.000,,261218,,,A,V*12
$GNRMC,123952.23,A,3953.73463,N,11630.28589,E,0.000,,261218,,,A,V*17
$GNRMC,123953.00,A,3953.73428,N,11630.28628,E,0.000,,261218,,,A,V*10
$GNRMC,123954.00,A,3953.73423,N,11630.28644,E,0.000,,261218,,,A,V*16
$GNRMC,123955.00,A,3953.73437,N,11630.28650,E,0.000,,261218,,,A,V*17
$GNRMC,123956.00,A,3953.73403,N,11630.28667,E,0.000,,261218,,,A,V*17
$GNRMC,123957.00,A,3953.73406,N,11630.28676,E,0.000,,261218,,,A,V*13
$GNRMC,123958.00,A,3953.73401,N,11630.28677,E,0.000,,261218,,,A,V*1A
$GNRMC,123959.00,A,3953.73407,N,11630.28680,E,0.000,,261218,,,A,V*15
$GNRMC,124000.00,A,3953.73419,N,11630.28680,E,0.000,,261218,,,A,V*18
$GNRMC,124001.00,A,3953.73426,N,11630.28679,E,0.000,,261218,,,A,V*13
$GNRMC,124002.00,A,3953.73451,N,11630.28674,E,0.000,,261218,,,A,V*1D
$GNRMC,124003.00,A,3953.73476,N,11630.28674,E,0.000,,261218,,,A,V*19
$GNRMC,124004.00,A,3953.73490,N,11630.28672,E,0.000,,261218,,,A,V*10
$GNRMC,124005.00,A,3953.73496,N,11630.28666,E,0.000,,261218,,,A,V*12
$GNRMC,124006.00,A,3953.73500,N,11630.28667,E,0.000,,261218,,,A,V*1E
$GNRMC,124007.00,A,3953.73499,N,11630.28670,E,0.000,,261218,,,A,V*18
$GNRMC,124008.00,A,3953.73506,N,11630.28670,E,0.000,,261218,,,A,V*10
$GNRMC,124009.00,A,3953.73502,N,11630.28679,E,0.000,,261218,,,A,V*1C
$GNRMC,124010.00,A,3953.73494,N,11630.28685,E,0.000,,261218,,,A,V*19
$GNRMC,124011.00,A,3953.73501,N,11630.28689,E,0.000,,261218,,,A,V*19
$GNRMC,124012.00,A,3953.73506,N,11630.28692,E,0.000,,261218,,,A,V*17
$GNRMC,124013.00,A,3953.73506,N,11630.28690,E,0.000,,261218,,,A,V*14
$GNRMC,124014.00,A,3953.73511,N,11630.28693,E,0.000,,261218,,,A,V*16
$GNRMC,124015.00,A,3953.73517,N,11630.28696,E,0.000,,261218,,,A,V*14
$GNRMC,124016.00,A,3953.73520,N,11630.28697,E,0.000,,261218,,,A,V*12
$GNRMC,124017.00,A,3953.73522,N,11630.28697,E,0.000,,261218,,,A,V*11
$GNRMC,124018.00,A,3953.73526,N,11630.28699,E,0.000,,261218,,,A,V*14
$GNRMC,124019.00,A,3953.73526,N,11630.28699,E,0.000,,261218,,,A,V*15
$GNRMC,124020.00,A,3953.73526,N,11630.28698,E,0.000,,261218,,,A,V*1E
$GNRMC,124021.00,A,3953.73528,N,11630.28699,E,0.000,,261218,,,A,V*10
$GNRMC,124022.00,A,3953.73531,N,11630.28700,E,0.000,,261218,,,A,V*1A
$GNRMC,124023.00,A,3953.73528,N,11630.28703,E,0.000,,261218,,,A,V*10
$GNRMC,124024.00,A,3953.73523,N,11630.28704,E,0.000,,261218,,,A,V*1B
$GNRMC,124025.00,A,3953.73522,N,11630.28707,E,0.000,,261218,,,A,V*18
$GNRMC,124026.00,A,3953.73516,N,11630.28708,E,0.000,,261218,,,A,V*13
$GNRMC,124027.00,A,3953.73515,N,11630.28710,E,0.000,,261218,,,A,V*18
$GNRMC,124028.00,A,3953.73510,N,11630.28713,E,0.000,,261218,,,A,V*11
$GNRMC,124029.00,A,3953.73497,N,11630.28713,E,0.000,,261218,,,A,V*1E
$GNRMC,124030.00,A,3953.73487,N,11630.28715,E,0.000,,261218,,,A,V*11
$GNRMC,124031.00,A,3953.73488,N,11630.28716,E,0.000,,261218,,,A,V*1C
$GNRMC,124032.00,A,3953.73489,N,11630.28716,E,0.000,,261218,,,A,V*1E
$GNRMC,124033.00,A,3953.73497,N,11630.28717,E,0.000,,261218,,,A,V*11
$GNRMC,124034.00,A,3953.73502,N,11630.28717,E,0.000,,261218,,,A,V*1B
$GNRMC,124035.00,A,3953.73503,N,11630.28717,E,0.000,,261218,,,A,V*1B
$GNRMC,124036.00,A,3953.73503,N,11630.28718,E,0.000,,261218,,,A,V*17
$GNRMC,124037.00,A,3953.73503,N,11630.28717,E,0.000,,261218,,,A,V*19
$GNRMC,124038.00,A,3953.73502,N,11630.28717,E,0.000,,261218,,,A,V*17
$GNRMC,124039.00,A,3953.73503,N,11630.28718,E,0.000,,261218,,,A,V*18
$GNRMC,124040.00,A,3953.73503,N,11630.28719,E,0.000,,261218,,,A,V*17
$GNRMC,124041.00,A,3953.73504,N,11630.28719,E,0.000,,261218,,,A,V*11
$GNRMC,124042.00,A,3953.73504,N,11630.28719,E,0.000,,261218,,,A,V*12
$GNRMC,124043.00,A,3953.73504,N,11630.28720,E,0.000,,261218,,,A,V*19
$GNRMC,124044.00,A,3953.73505,N,11630.28721,E,0.000,,261218,,,A,V*1E
$GNRMC,124045.00,A,3953.73504,N,11630.28721,E,0.000,,261218,,,A,V*1E
$GNRMC,124046.00,A,3953.73505,N,11630.28722,E,0.000,,261218,,,A,V*1F
$GNRMC,124047.00,A,3953.73504,N,11630.28721,E,0.000,,261218,,,A,V*1C
$GNRMC,124048.00,A,3953.73504,N,11630.28722,E,0.000,,261218,,,A,V*10
$GNRMC,124049.00,A,3953.73504,N,11630.28721,E,0.000,,261218,,,A,V*12
$GNRMC,124050.00,A,3953.73504,N,11630.28722,E,0.000,,261218,,,A,V*19
$GNRMC,124051.00,A,3953.73504,N,11630.28722,E,0.000,,261218,,,A,V*18
$GNRMC,124052.00,A,3953.73504,N,11630.28722,E,0.000,,261218,,,A,V*1B
$GNRMC,124053.00,A,3953.73502,N,11630.28721,E,0.000,,261218,,,A,V*1F
$GNRMC,124054.00,A,3953.73500,N,11630.28721,E,0.000,,261218,,,A,V*1A
$GNRMC,124055.00,A,3953.73498,N,11630.28721,E,0.000,,261218,,,A,V*1B
$GNRMC,124056.00,A,3953.73497,N,11630.28721,E,0.000,,261218,,,A,V*17
$GNRMC,124057.00,A,3953.73497,N,11630.28721,E,0.000,,261218,,,A,V*16
$GNRMC,124058.00,A,3953.73496,N,11630.28720,E,0.000,,261218,,,A,V*19
$GNRMC,124059.00,A,3953.73495,N,11630.28720,E,0.000,,261218,,,A,V*1B
$GNRMC,124100.00,A,3953.73495,N,11630.28720,E,0.000,,261218,,,A,V*16
$GNRMC,124101.00,A,3953.73494,N,11630.28720,E,0.000,,261218,,,A,V*16
$GNRMC,124102.00,A,3953.73494,N,11630.28720,E,0.000,,261218,,,A,V*15
$GNRMC,124103.00,A,3953.73494,N,11630.28720,E,0.000,,261218,,,A,V*14
$GNRMC,124104.00,A,3953.73493,N,11630.28721,E,0.000,,261218,,,A,V*15
$GNRMC,124105.00,A,3953.73493,N,11630.28721,E,0.000,,261218,,,A,V*14
$GNRMC,124106.00,A,3953.73491,N,11630.28722,E,0.000,,261218,,,A,V*16
$GNRMC,124107.00,A,3953.73490,N,11630.28723,E,0.000,,261218,,,A,V*17
$GNRMC,124108.00,A,3953.73489,N,11630.28723,E,0.000,,261218,,,A,V*10
$GNRMC,124109.00,A,3953.73489,N,11630.28723,E,0.000,,261218,,,A,V*11
$GNRMC,124110.00,A,3953.73489,N,11630.28723,E,0.000,,261218,,,A,V*19
$GNRMC,124111.00,A,3953.73489,N,11630.28723,E,0.000,,261218,,,A,V*18
$GNRMC,124112.00,A,3953.73491,N,11630.28723,E,0.000,,261218,,,A,V*12
$GNRMC,124113.00,A,3953.73489,N,11630.28724,E,0.000,,261218,,,A,V*1D
$GNRMC,124114.00,A,3953.73489,N,11630.28724,E,0.000,,261218,,,A,V*1A
$GNRMC,124115.00,A,3953.73489,N,11630.28724,E,0.000,,261218,,,A,V*1B
$GNRMC,124116.00,A,3953.73489,N,11630.28725,E,0.000,,261218,,,A,V*19
$GNRMC,124117.00,A,3953.73489,N,11630.28725,E,0.000,,261218,,,A,V*18
$GNRMC,124118.00,A,3953.73489,N,11630.28725,E,0.000,,261218,,,A,V*17
$GNRMC,124119.00,A,3953.73488,N,11630.28726,E,0.000,,261218,,,A,V*14
$GNRMC,124120.00,A,3953.73488,N,11630.28726,E,0.000,,261218,,,A,V*1E
$GNRMC,124121.00,A,3953.73489,N,11630.28727,E,0.000,,261218,,,A,V*1F
$GNRMC,124122.00,A,3953.73489,N,11630.28727,E,0.000,,261218,,,A,V*1C
$GNRMC,124123.00,A,3953.73489,N,11630.28727,E,0.000,,261218,,,A,V*1D
$GNRMC,124124.00,A,3953.73489,N,11630.28728,E,0.000,,261218,,,A,V*15
$GNRMC,124125.00,A,3953.73489,N,11630.28729,E,0.000,,261218,,,A,V*15
$GNRMC,124126.00,A,3953.73489,N,11630.28729,E,0.000,,261218,,,A,V*16
$GNRMC,124127.00,A,3953.73489,N,11630.28730,E,0.000,,261218,,,A,V*1F
$GNRMC,124128.00,A,3953.73489,N,11630.28730,E,0.000,,261218,,,A,V*10
$GNRMC,124129.00,A,3953.73489,N,11630.28731,E,0.000,,261218,,,A,V*10
$GNRMC,124130.00,A,3953.73488,N,11630.28732,E,0.000,,261218,,,A,V*1A
$GNRMC,124131.00,A,3953.73487,N,11630.28733,E,0.000,,261218,,,A,V*15
$GNRMC,124132.00,A,3953.73484,N,11630.28734,E,0.000,,261218,,,A,V*12
$GNRMC,124133.00,A,3953.73482,N,11630.28736,E,0.000,,261218,,,A,V*17
$GNRMC,124134.00,A,3953.73480,N,11630.28737,E,0.000,,261218,,,A,V*13
$GNRMC,124135.00,A,3953.73477,N,11630.28738,E,0.000,,261218,,,A,V*15
$GNRMC,124136.00,A,3953.73474,N,11630.28739,E,0.000,,261218,,,A,V*14
$GNRMC,124137.00,A,3953.73472,N,11630.28740,E,0.000,,261218,,,A,V*1D
$GNRMC,124138.00,A,3953.73469,N,11630.28740,E,0.000,,261218,,,A,V*18
$GNRMC,124139.00,A,3953.73467,N,11630.28741,E,0.000,,261218,,,A,V*16
$GNRMC,124140.00,A,3953.73464,N,11630.28741,E,0.000,,261218,,,A,V*1B
$GNRMC,124141.00,A,3953.73463,N,11630.28742,E,0.000,,261218,,,A,V*1E
$GNRMC,124142.00,A,3953.73460,N,11630.28742,E,0.000,,261218,,,A,V*1E
$GNRMC,124143.00,A,3953.73459,N,11630.28743,E,0.000,,261218,,,A,V*14
$GNRMC,124144.00,A,3953.73457,N,11630.28744,E,0.000,,261218,,,A,V*1A
$GNRMC,124145.00,A,3953.73456,N,11630.28745,E,0.000,,261218,,,A,V*1B
$GNRMC,124146.00,A,3953.73454,N,11630.28746,E,0.000,,261218,,,A,V*19
$GNRMC,124147.00,A,3953.73453,N,11630.28746,E,0.000,,261218,,,A,V*1F
$GNRMC,124148.00,A,3953.73451,N,11630.28748,E,0.000,,261218,,,A,V*1C
$GNRMC,124149.00,A,3953.73448,N,11630.28749,E,0.000,,261218,,,A,V*14
$GNRMC,124150.00,A,3953.73446,N,11630.28750,E,0.000,,261218,,,A,V*1A
$GNRMC,124151.00,A,3953.73443,N,11630.28751,E,0.000,,261218,,,A,V*1F
$GNRMC,124152.00,A,3953.73441,N,11630.28752,E,0.000,,261218,,,A,V*1D
$GNRMC,124153.00,A,3953.73439,N,11630.28753,E,0.000,,261218,,,A,V*12
$GNRMC,124154.00,A,3953.73437,N,11630.28754,E,0.000,,261218,,,A,V*1C
$GNRMC,124155.00,A,3953.73435,N,11630.28754,E,0.000,,261218,,,A,V*1F
$GNRMC,124156.00,A,3953.73434,N,11630.28756,E,0.000,,261218,,,A,V*1F
$GNRMC,124157.00,A,3953.73436,N,11630.28756,E,0.000,,261218,,,A,V*1C
$GNRMC,124158.00,A,3953.73438,N,11630.28757,E,0.000,,261218,,,A,V*1C
$GNRMC,124159.00,A,3953.73439,N,11630.28757,E,0.000,,261218,,,A,V*1C
$GNRMC,124200.00,A,3953.73441,N,11630.28758,E,0.000,,261218,,,A,V*13
$GNRMC,124201.00,A,3953.73443,N,11630.28759,E,0.000,,261218,,,A,V*11
$GNRMC,124202.00,A,3953.73442,N,11630.28760,E,0.000,,261218,,,A,V*19
$GNRMC,124203.00,A,3953.73441,N,11630.28761,E,0.000,,261218,,,A,V*1A
$GNRMC,124204.00,A,3953.73442,N,11630.28762,E,0.000,,261218,,,A,V*1D
$GNRMC,124205.00,A,3953.73443,N,11630.28763,E,0.000,,261218,,,A,V*1C
$GNRMC,124206.00,A,3953.73445,N,11630.28763,E,0.000,,261218,,,A,V*19
$GNRMC,124207.00,A,3953.73444,N,11630.28764,E,0.000,,261218,,,A,V*1E
$GNRMC,124208.00,A,3953.73444,N,11630.28765,E,0.000,,261218,,,A,V*10
$GNRMC,124209.00,A,3953.73442,N,11630.28767,E,0.000,,261218,,,A,V*15
$GNRMC,124210.00,A,3953.73441,N,11630.28768,E,0.000,,261218,,,A,V*11
$GNRMC,124211.00,A,3953.73439,N,11630.28769,E,0.000,,261218,,,A,V*1E
$GNRMC,124212.00,A,3953.73439,N,11630.28770,E,0.000,,261218,,,A,V*15
$GNRMC,124213.00,A,3953.73440,N,11630.28771,E,0.000,,261218,,,A,V*1B
$GNRMC,124214.00,A,3953.73440,N,11630.28771,E,0.000,,261218,,,A,V*1C
$GNRMC,124215.00,A,3953.73440,N,11630.28772,E,0.000,,261218,,,A,V*1E
$GNRMC,124216.00,A,3953.73440,N,11630.28773,E,0.000,,261218,,,A,V*1C
$GNRMC,124217.00,A,3953.73440,N,11630.28774,E,0.000,,261218,,,A,V*1A
$GNRMC,124218.00,A,3953.73440,N,11630.28775,E,0.000,,261218,,,A,V*14
$GNRMC,124219.00,A,3953.73440,N,11630.28775,E,0.000,,261218,,,A,V*15
$GNRMC,124220.00,A,3953.73440,N,11630.28776,E,0.000,,261218,,,A,V*1C
$GNRMC,124221.00,A,3953.73441,N,11630.28777,E,0.000,,261218,,,A,V*1D
$GNRMC,124222.00,A,3953.73441,N,11630.28778,E,0.000,,261218,,,A,V*11
$GNRMC,124223.00,A,3953.73441,N,11630.28778,E,0.000,,261218,,,A,V*10
$GNRMC,124224.00,A,3953.73441,N,11630.28779,E,0.000,,261218,,,A,V*16
$GNRMC,124225.00,A,3953.73441,N,11630.28780,E,0.000,,261218,,,A,V*11
$GNRMC,124226.00,A,3953.73441,N,11630.28780,E,0.000,,261218,,,A,V*12
$GNRMC,124227.00,A,3953.73441,N,11630.28781,E,0.000,,261218,,,A,V*12
$GNRMC,124228.00,A,3953.73441,N,11630.28782,E,0.000,,261218,,,A,V*1E
$GNRMC,124229.00,A,3953.73440,N,11630.28783,E,0.000,,261218,,,A,V*1F
$GNRMC,124230.00,A,3953.73439,N,11630.28784,E,0.000,,261218,,,A,V*1E
$GNRMC,124231.00,A,3953.73439,N,11630.28785,E,0.000,,261218,,,A,V*1E
$GNRMC,124232.00,A,3953.73439,N,11630.28785,E,0.000,,261218,,,A,V*1D
$GNRMC,124233.00,A,3953.73440,N,11630.28785,E,0.000,,261218,,,A,V*12
$GNRMC,124234.00,A,3953.73441,N,11630.28785,E,0.000,,261218,,,A,V*14
$GNRMC,124235.00,A,3953.73443,N,11630.28786,E,0.000,,261218,,,A,V*14
$GNRMC,124236.00,A,3953.73444,N,11630.28787,E,0.000,,261218,,,A,V*11
$GNRMC,124237.00,A,3953.73445,N,11630.28788,E,0.000,,261218,,,A,V*1E
$GNRMC,124238.00,A,3953.73446,N,11630.28788,E,0.000,,261218,,,A,V*12
$GNRMC,124239.00,A,3953.73447,N,11630.28789,E,0.000,,261218,,,A,V*13
$GNRMC,124240.00,A,3953.73449,N,11630.28789,E,0.000,,261218,,,A,V*13
$GNRMC,124241.00,A,3953.73450,N,11630.28790,E,0.000,,261218,,,A,V*12
$GNRMC,124242.00,A,3953.73452,N,11630.28791,E,0.000,,261218,,,A,V*12
$GNRMC,124243.00,A,3953.73453,N,11630.28791,E,0.000,,261218,,,A,V*12
$GNRMC,124244.00,A,3953.73453,N,11630.28792,E,0.000,,261218,,,A,V*16
$GNRMC,124245.00,A,3953.73453,N,11630.28792,E,0.000,,261218,,,A,V*17
$GNRMC,124246.00,A,3953.73453,N,11630.28793,E,0.000,,261218,,,A,V*15
$GNRMC,124247.00,A,3953.73452,N,11630.28794,E,0.000,,261218,,,A,V*12
$GNRMC,124248.00,A,3953.73451,N,11630.28794,E,0.000,,261218,,,A,V*1E
$GNRMC,124249.00,A,3953.73450,N,11630.28795,E,0.000,,261218,,,A,V*1F
$GNRMC,124250.00,A,3953.73450,N,11630.28795,E,0.000,,261218,,,A,V*17
$GNRMC,124251.00,A,3953.73450,N,11630.28796,E,0.000,,261218,,,A,V*15
$GNRMC,124252.00,A,3953.73452,N,11630.28796,E,0.000,,261218,,,A,V*14
$GNRMC,124253.00,A,3953.73453,N,11630.28797,E,0.000,,261218,,,A,V*15
$GNRMC,124254.00,A,3953.73453,N,11630.28797,E,0.000,,261218,,,A,V*12
$GNRMC,124255.00,A,3953.73452,N,11630.28798,E,0.000,,261218,,,A,V*1D
$GNRMC,124256.00,A,3953.73451,N,11630.28799,E,0.000,,261218,,,A,V*1C
$GNRMC,124257.00,A,3953.73450,N,11630.28800,E,0.000,,261218,,,A,V*13
$GNRMC,124258.00,A,3953.73450,N,11630.28800,E,0.000,,261218,,,A,V*1C
UM220-IV NL G1B1 COM1
FWVer R3.1.10.18Build4802
$GNRMC,124305.05,V,,,,,,,261218,,,N,V*13
$GNRMC,124306.05,A,3953.74466,N,11630.27631,E,0.222,,261218,,,A,V*10
$GNRMC,124307.05,A,3953.73840,N,11630.28834,E,0.034,,261218,,,A,V*1F
$GNRMC,124308.05,A,3953.73680,N,11630.28957,E,0.000,,261218,,,A,V*11
$GNRMC,124309.00,A,3953.73637,N,11630.28999,E,0.000,,261218,,,A,V*1B
$GNRMC,124310.00,A,3953.73670,N,11630.28960,E,0.000,,261218,,,A,V*16
$GNRMC,124311.00,A,3953.73689,N,11630.28946,E,0.000,,261218,,,A,V*15
$GNRMC,124312.00,A,3953.73672,N,11630.28945,E,0.000,,261218,,,A,V*11
$GNRMC,124313.00,A,3953.73651,N,11630.28942,E,0.000,,261218,,,A,V*16
$GNRMC,124314.00,A,3953.73660,N,11630.28946,E,0.000,,261218,,,A,V*17
$GNRMC,124315.00,A,3953.73662,N,11630.28948,E,0.000,,261218,,,A,V*1A
$GNRMC,124316.00,A,3953.73657,N,11630.28949,E,0.000,,261218,,,A,V*1E
$GNRMC,124317.00,A,3953.73667,N,11630.28951,E,0.000,,261218,,,A,V*15
$GNRMC,124318.00,A,3953.73677,N,11630.28951,E,0.000,,261218,,,A,V*1B
$GNRMC,124319.00,A,3953.73686,N,11630.28951,E,0.000,,261218,,,A,V*14
$GNRMC,124320.00,A,3953.73685,N,11630.28949,E,0.000,,261218,,,A,V*14
$GNRMC,124321.00,A,3953.73695,N,11630.28951,E,0.000,,261218,,,A,V*1D
$GNRMC,124322.00,A,3953.73700,N,11630.28954,E,0.000,,261218,,,A,V*16
$GNRMC,124323.00,A,3953.73704,N,11630.28953,E,0.000,,261218,,,A,V*14
$GNRMC,124324.00,A,3953.73711,N,11630.28955,E,0.000,,261218,,,A,V*11
$GNRMC,124325.00,A,3953.73713,N,11630.28954,E,0.000,,261218,,,A,V*13
$GNRMC,124326.00,A,3953.73715,N,11630.28954,E,0.000,,261218,,,A,V*16
$GNRMC,124327.00,A,3953.73717,N,11630.28953,E,0.000,,261218,,,A,V*12
$GNRMC,124328.00,A,3953.73727,N,11630.28957,E,0.000,,261218,,,A,V*1A
$GNRMC,124329.00,A,3953.73738,N,11630.28958,E,0.000,,261218,,,A,V*1A
$GNRMC,124330.00,A,3953.73746,N,11630.28959,E,0.000,,261218,,,A,V*1A
$GNRMC,124331.00,A,3953.73752,N,11630.28960,E,0.000,,261218,,,A,V*14
$GNRMC,124332.00,A,3953.73760,N,11630.28963,E,0.000,,261218,,,A,V*15
$GNRMC,124333.00,A,3953.73764,N,11630.28964,E,0.000,,261218,,,A,V*17
$GNRMC,124334.00,A,3953.73768,N,11630.28964,E,0.000,,261218,,,A,V*1C
$GNRMC,124335.00,A,3953.73773,N,11630.28966,E,0.000,,261218,,,A,V*15
$GNRMC,124336.00,A,3953.73778,N,11630.28968,E,0.000,,261218,,,A,V*13
$GNRMC,124337.00,A,3953.73781,N,11630.28968,E,0.000,,261218,,,A,V*14
$GNRMC,124338.00,A,3953.73788,N,11630.28967,E,0.000,,261218,,,A,V*1D
$GNRMC,124339.00,A,3953.73791,N,11630.28968,E,0.000,,261218,,,A,V*1B
$GNRMC,124340.00,A,3953.73796,N,11630.28967,E,0.000,,261218,,,A,V*1D
$GNRMC,124341.00,A,3953.73798,N,11630.28967,E,0.000,,261218,,,A,V*12
$GNRMC,124342.00,A,3953.73800,N,11630.28967,E,0.000,,261218,,,A,V*1F
$GNRMC,124343.00,A,3953.73805,N,11630.28965,E,0.000,,261218,,,A,V*19
$GNRMC,124344.00,A,3953.73807,N,11630.28966,E,0.000,,261218,,,A,V*1F
$GNRMC,124345.00,A,3953.73809,N,11630.28965,E,0.000,,261218,,,A,V*13
$GNRMC,124346.00,A,3953.73811,N,11630.28966,E,0.000,,261218,,,A,V*1A
$GNRMC,124347.00,A,3953.73811,N,11630.28965,E,0.000,,261218,,,A,V*18
$GNRMC,124348.00,A,3953.73813,N,11630.28964,E,0.000,,261218,,,A,V*14
$GNRMC,124349.00,A,3953.73815,N,11630.28964,E,0.000,,261218,,,A,V*13
$GNRMC,124350.00,A,3953.73817,N,11630.28964,E,0.000,,261218,,,A,V*19
$GNRMC,124351.00,A,3953.73817,N,11630.28964,E,0.000,,261218,,,A,V*18
$GNRMC,124352.00,A,3953.73817,N,11630.28963,E,0.000,,261218,,,A,V*1C
$GNRMC,124353.00,A,3953.73816,N,11630.28964,E,0.000,,261218,,,A,V*1B
$GNRMC,124354.00,A,3953.73812,N,11630.28963,E,0.000,,261218,,,A,V*1F
$GNRMC,124355.00,A,3953.73809,N,11630.28962,E,0.000,,261218,,,A,V*15
$GNRMC,124356.00,A,3953.73807,N,11630.28962,E,0.000,,261218,,,A,V*18
$GNRMC,124357.00,A,3953.73805,N,11630.28961,E,0.000,,261218,,,A,V*18
$GNRMC,124358.00,A,3953.73803,N,11630.28961,E,0.000,,261218,,,A,V*11
$GNRMC,124359.00,A,3953.73802,N,11630.28960,E,0.000,,261218,,,A,V*10
$GNRMC,124400.00,A,3953.73801,N,11630.28960,E,0.000,,261218,,,A,V*18
$GNRMC,124401.00,A,3953.73800,N,11630.28959,E,0.000,,261218,,,A,V*12
$GNRMC,124402.00,A,3953.73799,N,11630.28959,E,0.000,,261218,,,A,V*1E
$GNRMC,124403.00,A,3953.73797,N,11630.28959,E,0.000,,261218,,,A,V*11
$GNRMC,124404.00,A,3953.73796,N,11630.28958,E,0.000,,261218,,,A,V*16
$GNRMC,124405.00,A,3953.73795,N,11630.28958,E,0.000,,261218,,,A,V*14
$GNRMC,124406.00,A,3953.73794,N,11630.28957,E,0.000,,261218,,,A,V*19
$GNRMC,124407.00,A,3953.73792,N,11630.28956,E,0.000,,261218,,,A,V*1F
$GNRMC,124408.00,A,3953.73790,N,11630.28956,E,0.000,,261218,,,A,V*12
$GNRMC,124409.00,A,3953.73790,N,11630.28956,E,0.000,,261218,,,A,V*13
$GNRMC,124410.00,A,3953.73788,N,11630.28955,E,0.000,,261218,,,A,V*11
$GNRMC,124411.00,A,3953.73786,N,11630.28954,E,0.000,,261218,,,A,V*1F
$GNRMC,124412.00,A,3953.73785,N,11630.28953,E,0.000,,261218,,,A,V*18
$GNRMC,124413.00,A,3953.73783,N,11630.28953,E,0.000,,261218,,,A,V*1F
$GNRMC,124414.00,A,3953.73782,N,11630.28952,E,0.000,,261218,,,A,V*18
$GNRMC,124415.00,A,3953.73780,N,11630.28952,E,0.000,,261218,,,A,V*1B
$GNRMC,124416.00,A,3953.73779,N,11630.28951,E,0.000,,261218,,,A,V*1D
$GNRMC,124417.00,A,3953.73777,N,11630.28950,E,0.000,,261218,,,A,V*13
$GNRMC,124418.00,A,3953.73776,N,11630.28949,E,0.000,,261218,,,A,V*15
$GNRMC,124419.00,A,3953.73774,N,11630.28948,E,0.000,,261218,,,A,V*17
$GNRMC,124420.00,A,3953.73772,N,11630.28947,E,0.000,,261218,,,A,V*14
$GNRMC,124421.00,A,3953.73770,N,11630.28947,E,0.000,,261218,,,A,V*17
$GNRMC,124422.00,A,3953.73768,N,11630.28946,E,0.000,,261218,,,A,V*1C
$GNRMC,124423.00,A,3953.73766,N,11630.28945,E,0.000,,261218,,,A,V*10
$GNRMC,124425.00,A,3953.73764,N,11630.28944,E,0.000,,261218,,,A,V*15
$GNRMC,124426.00,A,3953.73762,N,11630.28944,E,0.000,,261218,,,A,V*10
$GNRMC,124427.00,A,3953.73761,N,11630.28944,E,0.000,,261218,,,A,V*12
$GNRMC,124428.00,A,3953.73760,N,11630.28944,E,0.000,,261218,,,A,V*1C
$GNRMC,124429.00,A,3953.73759,N,11630.28943,E,0.000,,261218,,,A,V*10
$GNRMC,124430.00,A,3953.73758,N,11630.28943,E,0.000,,261218,,,A,V*19
$GNRMC,124431.00,A,3953.73758,N,11630.28943,E,0.000,,261218,,,A,V*18
$GNRMC,124432.00,A,3953.73759,N,11630.28943,E,0.000,,261218,,,A,V*1A
$GNRMC,124433.00,A,3953.73760,N,11630.28944,E,0.000,,261218,,,A,V*16
$GNRMC,124434.00,A,3953.73761,N,11630.28944,E,0.000,,261218,,,A,V*10
$GNRMC,124435.00,A,3953.73762,N,11630.28944,E,0.000,,261218,,,A,V*12
$GNRMC,124436.00,A,3953.73763,N,11630.28943,E,0.000,,261218,,,A,V*17
$GNRMC,124437.00,A,3953.73763,N,11630.28943,E,0.000,,261218,,,A,V*16
$GNRMC,124438.00,A,3953.73764,N,11630.28943,E,0.000,,261218,,,A,V*1E
$GNRMC,124439.00,A,3953.73764,N,11630.28943,E,0.000,,261218,,,A,V*1F
$GNRMC,124440.00,A,3953.73765,N,11630.28942,E,0.000,,261218,,,A,V*11
$GNRMC,124441.00,A,3953.73764,N,11630.28942,E,0.000,,261218,,,A,V*11
$GNRMC,124442.00,A,3953.73762,N,11630.28941,E,0.000,,261218,,,A,V*17
$GNRMC,124443.00,A,3953.73761,N,11630.28940,E,0.000,,261218,,,A,V*14
$GNRMC,124444.00,A,3953.73760,N,11630.28940,E,0.000,,261218,,,A,V*12
$GNRMC,124445.00,A,3953.73759,N,11630.28939,E,0.000,,261218,,,A,V*17
$GNRMC,124446.00,A,3953.73759,N,11630.28938,E,0.000,,261218,,,A,V*15
$GNRMC,124447.00,A,3953.73758,N,11630.28938,E,0.000,,261218,,,A,V*15
$GNRMC,124448.00,A,3953.73758,N,11630.28937,E,0.000,,261218,,,A,V*15
$GNRMC,124449.00,A,3953.73758,N,11630.28936,E,0.000,,261218,,,A,V*15
$GNRMC,124450.00,A,3953.73757,N,11630.28936,E,0.000,,261218,,,A,V*12
$GNRMC,124451.00,A,3953.73757,N,11630.28935,E,0.000,,261218,,,A,V*10
$GNRMC,124452.00,A,3953.73757,N,11630.28935,E,0.000,,261218,,,A,V*13
$GNRMC,124453.00,A,3953.73756,N,11630.28934,E,0.000,,261218,,,A,V*12
$GNRMC,124454.00,A,3953.73755,N,11630.28934,E,0.000,,261218,,,A,V*16
$GNRMC,124455.00,A,3953.73755,N,11630.28933,E,0.000,,261218,,,A,V*10
$GNRMC,124456.00,A,3953.73754,N,11630.28933,E,0.000,,261218,,,A,V*12
$GNRMC,124457.00,A,3953.73753,N,11630.28932,E,0.000,,261218,,,A,V*15
$GNRMC,124458.00,A,3953.73752,N,11630.28932,E,0.000,,261218,,,A,V*1B
$GNRMC,124459.00,A,3953.73751,N,11630.28931,E,0.000,,261218,,,A,V*1A
$GNRMC,124500.00,A,3953.73751,N,11630.28931,E,0.000,,261218,,,A,V*17
$GNRMC,124501.00,A,3953.73750,N,11630.28930,E,0.000,,261218,,,A,V*16
$GNRMC,124502.00,A,3953.73750,N,11630.28930,E,0.000,,261218,,,A,V*15
$GNRMC,124503.00,A,3953.73749,N,11630.28929,E,0.000,,261218,,,A,V*14
$GNRMC,124504.00,A,3953.73749,N,11630.28929,E,0.000,,261218,,,A,V*13
$GNRMC,124505.00,A,3953.73748,N,11630.28928,E,0.000,,261218,,,A,V*12
$GNRMC,124506.00,A,3953.73748,N,11630.28928,E,0.000,,261218,,,A,V*11
$GNRMC,124507.00,A,3953.73747,N,11630.28928,E,0.000,,261218,,,A,V*1F
$GNRMC,124508.00,A,3953.73747,N,11630.28927,E,0.000,,261218,,,A,V*1F
$GNRMC,124509.00,A,3953.73746,N,11630.28927,E,0.000,,261218,,,A,V*1F
$GNRMC,124510.00,A,3953.73746,N,11630.28927,E,0.000,,261218,,,A,V*17
$GNRMC,124511.00,A,3953.73745,N,11630.28926,E,0.000,,261218,,,A,V*14
$GNRMC,124512.00,A,3953.73744,N,11630.28926,E,0.000,,261218,,,A,V*16
$GNRMC,124513.00,A,3953.73743,N,11630.28925,E,0.000,,261218,,,A,V*13
$GNRMC,124514.00,A,3953.73742,N,11630.28925,E,0.000,,261218,,,A,V*15
$GNRMC,124515.00,A,3953.73741,N,11630.28924,E,0.000,,261218,,,A,V*16
$GNRMC,124516.00,A,3953.73742,N,11630.28924,E,0.000,,261218,,,A,V*16
$GNRMC,124517.00,A,3953.73742,N,11630.28923,E,0.000,,261218,,,A,V*10
$GNRMC,124518.00,A,3953.73742,N,11630.28923,E,0.000,,261218,,,A,V*1F
$GNRMC,124519.00,A,3953.73743,N,11630.28922,E,0.000,,261218,,,A,V*1E
$GNRMC,124520.00,A,3953.73742,N,11630.28921,E,0.000,,261218,,,A,V*16
$GNRMC,124521.00,A,3953.73741,N,11630.28920,E,0.000,,261218,,,A,V*15
$GNRMC,124522.00,A,3953.73740,N,11630.28920,E,0.000,,261218,,,A,V*17
$GNRMC,124523.00,A,3953.73739,N,11630.28919,E,0.000,,261218,,,A,V*12
$GNRMC,124524.00,A,3953.73738,N,11630.28918,E,0.000,,261218,,,A,V*15
$GNRMC,124525.00,A,3953.73737,N,11630.28917,E,0.000,,261218,,,A,V*14
$GNRMC,124526.00,A,3953.73737,N,11630.28917,E,0.000,,261218,,,A,V*17
$GNRMC,124527.00,A,3953.73736,N,11630.28916,E,0.000,,261218,,,A,V*16
$GNRMC,124528.00,A,3953.73736,N,11630.28915,E,0.000,,261218,,,A,V*1A
$GNRMC,124529.00,A,3953.73735,N,11630.28914,E,0.000,,261218,,,A,V*19
$GNRMC,124530.00,A,3953.73735,N,11630.28914,E,0.000,,261218,,,A,V*11
$GNRMC,124531.00,A,3953.73735,N,11630.28913,E,0.000,,261218,,,A,V*17
$GNRMC,124532.00,A,3953.73734,N,11630.28912,E,0.000,,261218,,,A,V*14
$GNRMC,124533.00,A,3953.73734,N,11630.28912,E,0.000,,261218,,,A,V*15
